{"type":"Topology","arcs":[],"objects":{"POINT":{"type":"GeometryCollection","geometries":[{"type":"Point","coordinates":[72.96195,19.185369],"properties":{"Plant":"ACC - WH- JOGESHWARI","State":"Maharashtra","District":"Thane","Rand Qty":"169","Lat":"19.185369","Lon":"72.96195"}},{"type":"Point","coordinates":[72.849743,19.132275],"properties":{"Plant":"ACC - WH- JOGESHWARI","State":"Maharashtra","District":"Palghar","Rand Qty":"104","Lat":"19.132275","Lon":"72.849743"}},{"type":"Point","coordinates":[85.139461,25.61018],"properties":{"Plant":"ACC  WH -Leheriasarai","State":"Bihar","District":"Patna","Rand Qty":"180","Lat":"25.61018","Lon":"85.139461"}},{"type":"Point","coordinates":[85.891979,26.154036],"properties":{"Plant":"ACC  WH -Leheriasarai","State":"Bihar","District":"Darbhanga","Rand Qty":"178","Lat":"26.154036","Lon":"85.891979"}},{"type":"Point","coordinates":[86.074487,26.359477],"properties":{"Plant":"ACC  WH -Leheriasarai","State":"Bihar","District":"Madhubani","Rand Qty":"115","Lat":"26.359477","Lon":"86.074487"}},{"type":"Point","coordinates":[86.099723,25.426619],"properties":{"Plant":"ACC  WH -Leheriasarai","State":"Bihar","District":"Begusarai","Rand Qty":"148","Lat":"25.426619","Lon":"86.099723"}}]}}}